@lon	@lat	name
139.8842455	35.6682279	東葛西三丁目
139.8637260	35.6677401	西葛西四丁目
139.8598918	35.6735928	北葛西三丁目
139.8526660	35.6722321	西葛西一丁目
139.8533379	35.6680691	西葛西二丁目
139.8580746	35.6674208	西葛西三丁目
139.8618311	35.6660709	西葛西五丁目
139.8670399	35.6663291	中葛西四丁目
139.8710968	35.6658464	中葛西三丁目
139.8783186	35.6654597	東葛西五丁目
139.8847988	35.6622018	東葛西四丁目
139.8779512	35.6612495	東葛西六丁目
139.8690187	35.6626257	中葛西五丁目
139.8676139	35.6601076	中葛西六丁目
139.8796758	35.6444001	堀江町
139.8778653	35.6587052	東葛西七丁目
139.8843764	35.6543988	東葛西九丁目
139.8791997	35.6549251	東葛西八丁目
139.8753655	35.6537733	南葛西二丁目
139.8778733	35.6477229	南葛西六丁目
139.8816070	35.6475333	南葛西七丁目
139.8729099	35.6456686	南葛西五丁目
139.8689671	35.6501074	南葛西三丁目
139.8712094	35.6577125	中葛西八丁目
139.8664632	35.6566370	中葛西七丁目
139.8614918	35.6562556	西葛西八丁目
139.8608574	35.6633655	西葛西六丁目
139.8613081	35.6604813	西葛西七丁目
139.8518492	35.6613584	清新町一丁目
139.8546307	35.6559854	清新町二丁目
139.8539132	35.6509912	臨海町一丁目
139.8605517	35.6507405	臨海町二丁目
139.8696846	35.6445515	臨海町五丁目
139.8653488	35.6489130	臨海町三丁目
139.8642156	35.6460479	臨海町四丁目
139.8599441	35.6426170	臨海町六丁目
139.8620204	35.6984235	西小松川町
139.8378202	35.7148409	平井七丁目
139.8415480	35.7098250	平井六丁目
139.8424780	35.7075820	平井五丁目
139.8473581	35.7071958	平井四丁目
139.8417005	35.7035167	平井三丁目
139.8452923	35.7014494	平井二丁目
139.8513900	35.7040905	平井一丁目
139.8561682	35.7114393	松島四丁目
139.8620811	35.7107533	松島三丁目
139.8594505	35.7059090	松島二丁目
139.8649821	35.7045227	松島一丁目
139.8540430	35.7016720	小松川四丁目
139.8490321	35.6981366	小松川三丁目
139.8527010	35.6958440	小松川二丁目
139.8507110	35.6880520	小松川一丁目
139.8610040	35.6894910	東小松川四丁目
139.8620440	35.6932360	東小松川三丁目
139.8654717	35.6965299	東小松川二丁目
139.8663400	35.7008720	東小松川一丁目
139.8631822	35.6762979	宇喜田町
139.8820640	35.7392764	西小岩五丁目
139.8801967	35.7379828	西小岩四丁目
139.8781031	35.7377063	西小岩三丁目
139.8741173	35.7326774	西小岩二丁目
139.8781890	35.7325830	西小岩一丁目
139.8872022	35.7485556	北小岩八丁目
139.8914005	35.7447695	北小岩七丁目
139.8853737	35.7442059	北小岩六丁目
139.8890870	35.7406530	北小岩五丁目
139.8961920	35.7415450	北小岩四丁目
139.8946274	35.7371308	北小岩三丁目
139.8856460	35.7398380	北小岩二丁目
139.8915380	35.7362760	北小岩一丁目
139.8766070	35.7225190	興宮町
139.8798400	35.7157720	松本二丁目
139.8765363	35.7149317	松本一丁目
139.8853170	35.7316700	南小岩八丁目
139.8834166	35.7298835	南小岩七丁目
139.8787070	35.7295270	南小岩六丁目
139.8802126	35.7243807	南小岩五丁目
139.8834130	35.7225420	南小岩四丁目
139.8863810	35.7257810	南小岩三丁目
139.8894550	35.7200060	南小岩二丁目
139.8852003	35.7201806	南小岩一丁目
139.8982540	35.7190717	北篠崎二丁目
139.8958040	35.7207230	北篠崎一丁目
139.8895006	35.7349508	東小岩六丁目
139.8883470	35.7315171	東小岩五丁目
139.8898049	35.7273935	東小岩四丁目
139.8942030	35.7317300	東小岩三丁目
139.8944980	35.7263670	東小岩二丁目
139.8924300	35.7209744	東小岩一丁目
139.8999452	35.7007477	谷河内二丁目
139.8952350	35.7032780	谷河内一丁目
139.8834240	35.7172560	鹿骨町
139.8778507	35.7101804	大杉五丁目
139.8813780	35.7103560	大杉四丁目
139.8825479	35.7049685	大杉三丁目
139.8792480	35.7048880	大杉二丁目
139.8764094	35.7059117	大杉一丁目
139.8915078	35.7042799	新堀二丁目
139.8868751	35.7047450	新堀一丁目
139.9163150	35.6951680	東篠崎町
139.8992555	35.7085016	上篠崎四丁目
139.8993450	35.7119224	上篠崎三丁目
139.9052352	35.7116849	上篠崎二丁目
139.9010420	35.7162670	上篠崎一丁目
139.8818984	35.7187142	東松本二丁目
139.8854935	35.7187068	東松本一丁目
139.9132563	35.6986678	下篠崎町
139.9118846	35.6910333	東篠崎二丁目
139.9162512	35.6982302	東篠崎一丁目
139.8804452	35.6795066	西瑞江五丁目
139.8842031	35.6822330	西瑞江四丁目
139.8904360	35.6885072	西瑞江三丁目
139.8731670	35.6818140	二之江町
139.8734063	35.6836213	一之江町
139.8835205	35.7139056	鹿骨六丁目
139.8862724	35.7147907	鹿骨五丁目
139.8896343	35.7143529	鹿骨四丁目
139.8923563	35.7133614	鹿骨三丁目
139.8933177	35.7071043	鹿骨二丁目
139.8875880	35.7088090	鹿骨一丁目
139.8834350	35.6852850	一之江八丁目
139.8795877	35.6864814	一之江七丁目
139.8758814	35.6868892	一之江六丁目
139.8812719	35.6938250	一之江五丁目
139.8809558	35.6901116	一之江四丁目
139.8845692	35.6887406	一之江三丁目
139.8840260	35.6949610	一之江二丁目
139.8834770	35.6999680	一之江一丁目
139.8959410	35.7115970	西篠崎二丁目
139.8938400	35.7150250	西篠崎一丁目
139.9085790	35.6925948	南篠崎町五丁目
139.9028080	35.6978030	南篠崎町四丁目
139.9002930	35.6952930	南篠崎町三丁目
139.9027868	35.6922030	南篠崎町二丁目
139.9062516	35.6947511	南篠崎町一丁目
139.8741210	35.6904000	松江七丁目
139.8717309	35.6864726	松江六丁目
139.8684080	35.6879750	松江五丁目
139.8702606	35.6923187	松江四丁目
139.8686060	35.6946850	松江三丁目
139.8733519	35.6994090	松江二丁目
139.8695670	35.7001000	松江一丁目
139.8696203	35.6776389	船堀七丁目
139.8676260	35.6792510	船堀六丁目
139.8701690	35.6819055	船堀五丁目
139.8669690	35.6839000	船堀四丁目
139.8648860	35.6814940	船堀三丁目
139.8572504	35.6836937	船堀二丁目
139.8599261	35.6864742	船堀一丁目
139.8738781	35.6961208	西一之江四丁目
139.8773500	35.6944250	西一之江三丁目
139.8800160	35.7001310	西一之江二丁目
139.8770171	35.7003015	西一之江一丁目
139.8752772	35.6795256	春江町五丁目
139.8782090	35.6828480	春江町四丁目
139.8879530	35.6922910	春江町三丁目
139.8888950	35.6999170	春江町二丁目
139.8920232	35.7028462	春江町一丁目
139.8765432	35.6756020	江戸川六丁目
139.8827970	35.6752782	江戸川五丁目
139.8871526	35.6804128	江戸川四丁目
139.8927800	35.6843916	江戸川三丁目
139.9023364	35.6854180	江戸川二丁目
139.9053980	35.6883080	江戸川一丁目
139.8663690	35.6744870	北葛西五丁目
139.8635200	35.6715372	北葛西四丁目
139.8551678	35.6755937	北葛西二丁目
139.8553893	35.6803577	北葛西一丁目
139.8727173	35.7290140	上一色三丁目
139.8745835	35.7258842	上一色二丁目
139.8714758	35.7246096	上一色一丁目
139.8706150	35.7203364	本一色三丁目
139.8739031	35.7183374	本一色二丁目
139.8695180	35.7161370	本一色一丁目
139.8677738	35.7113001	中央四丁目
139.8732920	35.7121680	中央三丁目
139.8733237	35.7064221	中央二丁目
139.8694064	35.7066080	中央一丁目
139.8765342	35.6683187	東葛西二丁目
139.8799276	35.6710290	東葛西一丁目
139.8741780	35.6495309	南葛西四丁目
139.8689414	35.6541395	南葛西一丁目
139.8736722	35.6725087	中葛西二丁目
139.8694551	35.6713985	中葛西一丁目
139.8980534	35.7038744	篠崎町八丁目
139.9020794	35.7048555	篠崎町七丁目
139.9046706	35.7007960	篠崎町六丁目
139.9081723	35.7022064	篠崎町五丁目
139.9103125	35.6997061	篠崎町四丁目
139.9135669	35.7045058	篠崎町三丁目
139.9079320	35.7069910	篠崎町二丁目
139.9084377	35.7100027	篠崎町一丁目
139.8954109	35.6901667	東瑞江三丁目
139.8969342	35.6872975	東瑞江二丁目
139.8996080	35.6904100	東瑞江一丁目
139.8938173	35.6930841	瑞江四丁目
139.8932070	35.6960220	瑞江三丁目
139.8968745	35.6952939	瑞江二丁目
139.8954854	35.6993262	瑞江一丁目
